{
  "venues": {
    "400017978": { "realName": "SoFi Stadium", "city": "Inglewood (Los Angeles)", "country": "US", "lat": 33.9535, "lon": -118.3392, "tz": "America/Los_Angeles", "capacity": 70240, "roof": "canopy" },
    "400098290": { "realName": "Mercedes-Benz Stadium", "city": "Atlanta", "country": "US", "lat": 33.7554, "lon": -84.401, "tz": "America/New_York", "capacity": 71000, "roof": "retractable" },
    "400216606": { "realName": "Lumen Field", "city": "Seattle", "country": "US", "lat": 47.5952, "lon": -122.3316, "tz": "America/Los_Angeles", "capacity": 69000, "roof": "open" },
    "400222084": { "realName": "Estadio Azteca (Estadio Banorte)", "city": "Mexico City", "country": "MX", "lat": 19.3029, "lon": -99.1505, "tz": "America/Mexico_City", "capacity": 87523, "roof": "open" },
    "400238450": { "realName": "Estadio BBVA", "city": "Guadalupe (Monterrey)", "country": "MX", "lat": 25.6692, "lon": -100.2447, "tz": "America/Monterrey", "capacity": 53500, "roof": "open" },
    "400242032": { "realName": "BMO Field", "city": "Toronto", "country": "CA", "lat": 43.6332, "lon": -79.4186, "tz": "America/Toronto", "capacity": 45736, "roof": "open" },
    "400248370": { "realName": "BC Place", "city": "Vancouver", "country": "CA", "lat": 49.2768, "lon": -123.112, "tz": "America/Vancouver", "capacity": 54500, "roof": "retractable" },
    "400248622": { "realName": "Lincoln Financial Field", "city": "Philadelphia", "country": "US", "lat": 39.9008, "lon": -75.1675, "tz": "America/New_York", "capacity": 69796, "roof": "open" },
    "400248623": { "realName": "Gillette Stadium", "city": "Foxborough (Boston)", "country": "US", "lat": 42.0909, "lon": -71.2643, "tz": "America/New_York", "capacity": 65878, "roof": "open" },
    "400249385": { "realName": "NRG Stadium", "city": "Houston", "country": "US", "lat": 29.6847, "lon": -95.4107, "tz": "America/Chicago", "capacity": 72220, "roof": "retractable" },
    "400252150": { "realName": "Estadio Akron", "city": "Zapopan (Guadalajara)", "country": "MX", "lat": 20.6817, "lon": -103.4625, "tz": "America/Mexico_City", "capacity": 48071, "roof": "open" },
    "400254717": { "realName": "Arrowhead Stadium (GEHA Field)", "city": "Kansas City", "country": "US", "lat": 39.0489, "lon": -94.4839, "tz": "America/Chicago", "capacity": 76416, "roof": "open" },
    "400257521": { "realName": "Levi's Stadium", "city": "Santa Clara (SF Bay Area)", "country": "US", "lat": 37.4033, "lon": -121.9694, "tz": "America/Los_Angeles", "capacity": 70909, "roof": "open" },
    "400257525": { "realName": "Hard Rock Stadium", "city": "Miami Gardens", "country": "US", "lat": 25.958, "lon": -80.2389, "tz": "America/New_York", "capacity": 67518, "roof": "canopy" },
    "400257526": { "realName": "AT&T Stadium", "city": "Arlington (Dallas)", "country": "US", "lat": 32.7473, "lon": -97.0945, "tz": "America/Chicago", "capacity": 80000, "roof": "retractable" },
    "400257536": { "realName": "MetLife Stadium", "city": "East Rutherford (New York/New Jersey)", "country": "US", "lat": 40.8128, "lon": -74.0742, "tz": "America/New_York", "capacity": 82500, "roof": "open" }
  }
}
